[{"hours": "1 to 1 TA - 15 hours / week", "instructor": "Megan Roberts", "quarter": "fall", "number": "458", "name": "Scienfic Dec Making"}, {"hours": "1 to 1 TA - 15 hours / week", "instructor": "Chuck Larson", "quarter": "fall", "number": "301", "name": "Anatomy & Physiology Vocal Mech"}, {"hours": "1 to 1 TA - 15 hours / week", "instructor": "Bev Wright", "quarter": "fall", "number": "306", "name": "Psychoacoustics"}, {"hours": "1 to 1 TA - 15 hours / week", "instructor": "Stacy Kaplan", "quarter": "fall", "number": "455", "name": "Clinical Speech Anatomy etc"}, {"hours": "1 to 1 TA - 15 hours / week", "instructor": "Stacy Kaplan", "quarter": "fall", "number": "472", "name": "Intro to Clinical Methods"}, {"hours": "2 to 2 TA - 15 hours / week", "instructor": "Belma Hadziselimovic ", "quarter": "fall", "number": "456", "name": "Neuroanatomy"}, {"hours": "1 to 1 TA - 15 hours / week", "instructor": "Amy Sindelar", "quarter": "fall", "number": "320", "name": "Intro to Speech, Language, and Learning and Their Disorders"}, {"hours": "1 to 2 TA - 15 hours / week", "instructor": "Viorica Marian", "quarter": "fall", "number": "464", "name": "Linguistic and Cultural Diversity in Speech and Language Development and Disorders"}, {"hours": "1 to 1 TA - 7.5 hours / week", "instructor": "Steve Zecker", "quarter": "fall", "number": "304", "name": "Statistics"}, {"hours": "1 to 1 TA - 7.5 hours / week", "instructor": "Jon Siegel", "quarter": "fall", "number": "302", "name": "Anatomy and Physiology of Peripheral Hearing Mech"}, {"hours": "1 to 1 TA - 7.5 hours / week", "instructor": "Jon Siegel", "quarter": "fall", "number": "401", "name": "Signals, Systems & Acoustics for the Communication Sciences"}, {"hours": "1 to 1 TA - 15 hours / week", "instructor": "Frances Block", "quarter": "fall", "number": "463", "name": "The Field of Special Education"}, {"hours": "1 to 1 TA - 7.5 hours / week", "instructor": "Sumit Dhar", "quarter": "fall", "number": "423", "name": "Evaluation of the Peripheral Hearing Mechanism"}, {"hours": "1 to 1 TA - 7.5 hours / week", "instructor": "Sumit Dhar", "quarter": "fall", "number": "427", "name": "Otoacoustic Emissions"}, {"hours": "2 to 2 TA - 30 hours / week", "instructor": "Cindy Thompson", "quarter": "fall", "number": "457", "name": "Language Science"}, {"hours": "1 to 2 TA - 15 hours / week", "instructor": "Sazzad Nasir", "quarter": "fall", "number": "112", "name": "Scientific Exploration of Communication"}, {"hours": "1 to 2 TA - 15 hours / week", "instructor": "Angela Roberts", "quarter": "winter", "number": "494", "name": "Fluency & Flu Dis"}, {"hours": "1 to 1 TA - 15 hours / week", "instructor": "Angela Roberts", "quarter": "winter", "number": "495", "name": "Acquired Ling & Cog Dis"}, {"hours": "1 to 2 TA - 15 hours / week", "instructor": "Pam Souza", "quarter": "winter", "number": "411", "name": "Evaluation & Use of Amp Systems"}, {"hours": "1 to 1 TA - 15 hours / week", "instructor": "Megan Roberts", "quarter": "winter", "number": "339", "name": "Early Comm Inter"}, {"hours": "1 to 1 TA - 7.5 hours / week", "instructor": "Chuck Larson", "quarter": "winter", "number": "202", "name": "Neurobiology of Comm"}, {"hours": "1 to 1 TA - 15 hours / week", "instructor": "Stacy Kaplan", "quarter": "winter", "number": "460", "name": "Counseling"}, {"hours": "1 to 1 TA - 15 hours / week", "instructor": "Stacy Kaplan", "quarter": "winter", "number": "473", "name": "Clinical Methods peds"}, {"hours": "1 to 1 TA - 15 hours / week", "instructor": "Stacy Kaplan", "quarter": "winter", "number": "474", "name": "Clinical Methods - Adult Pop"}, {"hours": "1 to 1 TA - 15 hours / week", "instructor": "Elizabeth Norton", "quarter": "winter", "number": "492", "name": "Pediatric Language Disorders"}, {"hours": "1 to 1 TA - 7.5 hours / week", "instructor": "Steve Zecker", "quarter": "winter", "number": "373", "name": "Intro to LD"}, {"hours": "2 to 3 TA - 22.5 hours / week", "instructor": "Nina Kraus", "quarter": "winter", "number": "310", "name": "Biol Fnd Speech & Music"}, {"hours": "2 to 2 TA - 15 hours / week", "instructor": "Molly Losh", "quarter": "winter", "number": "342", "name": "Typical & Atypical Dev in Inf & Toddlers"}, {"hours": "1 to 1 TA - 7.5 hours / week", "instructor": "Judith Roman", "quarter": "winter", "number": "305", "name": "Phonetics"}, {"hours": "1 to 1 TA - 15 hours / week", "instructor": "Aaron Wilkins", "quarter": "winter", "number": "490", "name": "Adult Neuromotor Speech Disorders"}, {"hours": "3 to 3 TA - 22.5 hours / week", "instructor": "Jason Sanchez", "quarter": "winter", "number": "318", "name": "Intro to Aud"}, {"hours": "1 to 1 TA - 7.5 hours / week", "instructor": "Tina Grieco-Calub", "quarter": "winter", "number": "420", "name": "Pathologies of the Auditory System"}, {"hours": "1 to 1 TA - 15 hours / week", "instructor": "Angela Roberts", "quarter": "spring", "number": "495", "name": "Acquired Ling & Cog Dis"}, {"hours": "1 to 1 TA - 15 hours / week", "instructor": "Stacy Kaplan", "quarter": "spring", "number": "474", "name": "Clinical Methods - Adult Pop"}, {"hours": "1 to 1 TA - 15 hours / week", "instructor": "Stacy Kaplan", "quarter": "spring", "number": "473", "name": "Clinical Methods peds"}, {"hours": "1 to 1 TA - 15 hours / week", "instructor": "Elizabeth Norton", "quarter": "spring", "number": "492", "name": "Pediatric Language Disorders"}, {"hours": "1 to 1 TA - 15 hours / week", "instructor": "Amy Sindelar", "quarter": "spring", "number": "332", "name": "Clinical Assisting"}, {"hours": "1 to 1 TA - 7.5 hours / week", "instructor": "Megan Worthington ", "quarter": "spring", "number": "319", "name": "Aural Rehabilitation"}, {"hours": "1 to 1 TA - 7.5 hours / week", "instructor": "Frances Block", "quarter": "spring", "number": "334", "name": "Delivery Systems in SLP"}, {"hours": "1 to 1 TA - 7.5 hours / week", "instructor": "Nathan Waller", "quarter": "spring", "number": "493", "name": "Voice Pathology & Phys"}, {"hours": "2 to 2 TA - 15 hours / week", "instructor": "Molly Losh", "quarter": "spring", "number": "382", "name": "Autism"}, {"hours": "1 to 1 TA - 15 hours / week", "instructor": "Aaron Wilkins", "quarter": "spring", "number": "490", "name": "Adult Neuromotor Speech Disorders"}, {"hours": "1 to 2 TA - 15 hours / week", "instructor": "Jason Sanchez", "quarter": "spring", "number": "425", "name": "Electrophysiology of the Hum Aud Sys"}, {"hours": "1 to 1 TA - 7.5 hours / week", "instructor": "Kristy Riley", "quarter": "spring", "number": "108", "name": "Comm Disorders"}, {"hours": "1 to 1 TA - 15 hours / week", "instructor": "Sazzad Nasir", "quarter": "spring", "number": "303", "name": "Brain & Cognition"}, {"hours": "1 to 1 TA - 7.5 hours / week", "instructor": "Tina Grieco-Calub", "quarter": "spring", "number": "428", "name": "Fundamental s of Vestibular Science "}]
